{"id":"0","time":1586445175,"success":true,"result":[{"id":"2","type":"2","name":"Astoria fi\u00f3k","description":"\u003Cp\u003ETelefon: +36 1 428-8822 Fax: +36 1 428-8832 Nyitva tart\u00e1s: (H- P) 8:30-15:00;\u00a0 AKAD\u00c1LYMENTES\u00cdTETT BANKFI\u00d3K\u003C\/p\u003E","address":"1088 Budapest, R\u00e1k\u00f3czi \u00fat 1-3.","email":"fiok22@magnetbank.hu","lat":"47.494195","lon":"19.060764"},{"id":"21","type":"1","name":"Astoriai ATM","description":"\u003Cp\u003EA helysz\u00ednen nem csak ATM \u00fczemel, hanem akad\u00e1lymentes\u00edtett bankfi\u00f3k is.\u003C\/p\u003E","address":"1088 Budapest, R\u00e1k\u00f3czi \u00fat 1-3.","email":"","lat":"47.494195","lon":"19.060764"},{"id":"22","type":"1","name":"Belv\u00e1rosi ATM","description":"\u003Cp\u003EA helysz\u00ednen nem csak ATM \u00fczemel, hanem akad\u00e1lymentes\u00edtett bankfi\u00f3k is.\u003C\/p\u003E","address":"1055 Budapest, Balassi B\u00e1lint u. 9-11.","email":"","lat":"47.510261","lon":"19.047165"},{"id":"3","type":"2","name":"Belv\u00e1rosi K\u00f6z\u00f6ss\u00e9gi Pont","description":"\u003Cp\u003ETelefon: +36 1 428-8808 Fax: +36 1 301-6638 Bankfi\u00f3k \u00e9s k\u00e1v\u00e9z\u00f3 (H-P): 8.00-15.00; AKAD\u00c1LYMENTES\u00cdTETT BANKFI\u00d3K\u003Cbr \/\u003E\u003Ca href=\u0022belvarosi-kozossegi-pont\u0022 target=\u0022_blank\u0022\u003EN\u00e9zz k\u00f6r\u00fcl a K\u00f6z\u00f6ss\u00e9gi Pontban! \u003C\/a\u003E\u003C\/p\u003E","address":"1055 Budapest, Balassi B\u00e1lint u. 9-11.","email":"fiok01@magnetbank.hu","lat":"47.510261","lon":"19.047165"},{"id":"13","type":"2","name":"Dunakeszi fi\u00f3k","description":"\u003Cp\u003ETelefon: +36 1 428-8823 Fax: +36 1 428-8834 Nyitva tart\u00e1s: (H-P) 8:00-15:00;\u00a0 AKAD\u00c1LYMENTES\u00cdTETT BANKFI\u00d3K\u003C\/p\u003E","address":"2120 Dunakeszi, F\u0151 \u00fat 41.","email":"fiok23@magnetbank.hu","lat":"47.632568","lon":"19.129245"},{"id":"23","type":"1","name":"Dunakeszi-i ATM","description":"\u003Cp\u003EA helysz\u00ednen nem csak ATM \u00fczemel, hanem akad\u00e1lymentes\u00edtett bankfi\u00f3k is.\u003C\/p\u003E","address":"2120 Dunakeszi, F\u0151 \u00fat 41.","email":"","lat":"47.632568","lon":"19.129245"},{"id":"24","type":"1","name":"Kispesti ATM","description":"\u003Cp\u003EA helysz\u00ednen csak ATM \u00fczemel.\u00a0\u003C\/p\u003E","address":"1191 Budapest, Kossuth t\u00e9r 24.","email":"","lat":"47.458395","lon":"19.144102"},{"id":"9","type":"0","name":"Kispesti fi\u00f3k","description":"\u003Cp\u003ETelefon: +36 1 428-8814 Fax: +36 1 297-0841 Nyitva tart\u00e1s: (H-P) 8:00-15:00;\u00a0\u003C\/p\u003E\r\n\u003Cp\u003EAz ATM a fi\u00f3kt\u00f3l k\u00e9t perc s\u00e9t\u00e1ra tal\u00e1lhat\u00f3.\u00a0\u003C\/p\u003E","address":"1191 Budapest, Kossuth t\u00e9r 5.  1. emelet","email":"fiok14@magnetbank.hu","lat":"47.458395","lon":"19.145695"},{"id":"25","type":"1","name":"K\u00f6zponti ATM","description":"\u003Cp\u003EA helysz\u00ednen nem csak ATM \u00fczemel, hanem akad\u00e1lymentes\u00edtett bankfi\u00f3k is.\u003C\/p\u003E","address":"1062 Budapest, Andr\u00e1ssy \u00fat 98.","email":"","lat":"47.510771","lon":"19.071203"},{"id":"1","type":"2","name":"K\u00f6zponti fi\u00f3k","description":"\u003Cp\u003ETelefon: +36 1 428-8800 Fax: +36 1 428-8801 Nyitvatart\u00e1s: (H-P) 8.30-15.00; AKAD\u00c1LYMENTES\u00cdTETT BANKFI\u00d3K\u003C\/p\u003E","address":"1062 Budapest, Andr\u00e1ssy \u00fat 98.","email":"fiok10@magnetbank.hu","lat":"47.510771","lon":"19.071203"},{"id":"19","type":"1","name":"\u00d3budai ATM","description":"\u003Cp\u003EA helysz\u00ednen kiz\u00e1r\u00f3lag ATM \u00fczemel, a bankfi\u00f3k a Belv\u00e1rosi bankfi\u00f3kba k\u00f6lt\u00f6z\u00f6tt.\u003C\/p\u003E\r\n\u003Cp\u003E\u00a0\u003C\/p\u003E","address":"1032 Budapest, B\u00e9csi \u00fat 195.","email":"","lat":"47.540894","lon":"19.031149"},{"id":"26","type":"1","name":"Solym\u00e1ri ATM","description":"\u003Cp\u003EA helysz\u00ednen nem csak ATM \u00fczemel, hanem akad\u00e1lymentes\u00edtett bankfi\u00f3k is.\u003C\/p\u003E","address":"2083 Solym\u00e1r, V\u00e1rhegy u. 1.","email":"","lat":"47.592310","lon":"18.937990"},{"id":"14","type":"2","name":"Solym\u00e1ri fi\u00f3k","description":"\u003Cp\u003ETelefon: +36 1 428-8813 Fax: +36 1 428-8836 Nyitvatart\u00e1s: (H-P) 8:00-15:00; AKAD\u00c1LYMENTES\u00cdTETT BANKFI\u00d3K\u003C\/p\u003E","address":"2083 Solym\u00e1r, V\u00e1rhegy u. 1.","email":"fiok13@magnetbank.hu","lat":"47.592310","lon":"18.937990"},{"id":"27","type":"1","name":"Sz\u00e9kesfeh\u00e9rv\u00e1ri ATM","description":"\u003Cp\u003EA helysz\u00ednen nem csak ATM \u00fczemel, hanem akad\u00e1lymentes\u00edtett bankfi\u00f3k is.\u003C\/p\u003E","address":"8000 Sz\u00e9kesfeh\u00e9rv\u00e1r, Kossuth u. 14.","email":"","lat":"47.189743","lon":"18.411989"},{"id":"17","type":"2","name":"Sz\u00e9kesfeh\u00e9rv\u00e1ri K\u00f6z\u00f6ss\u00e9gi Pont","description":"\u003Cp\u003ETelefon: +36 1 428-8824 Fax: +36 1 428-8831 (H-P) 8:30-15:00; AKAD\u00c1LYMENTES\u00cdTETT BANKFI\u00d3K\u003Cbr \/\u003E\u003Ca href=\u0022szekesfehervari_kozossegi_pont\u0022 target=\u0022_blank\u0022\u003EN\u00e9zz k\u00f6r\u00fcl a K\u00f6z\u00f6ss\u00e9gi Pontban!\u003C\/a\u003E\u003C\/p\u003E","address":"8000 Sz\u00e9kesfeh\u00e9rv\u00e1r, Kossuth u. 14.","email":"fiok24@magnetbank.hu","lat":"47.189743","lon":"18.411989"},{"id":"28","type":"1","name":"\u00dajbudai ATM","description":"\u003Cp\u003EA helysz\u00ednen nem csak ATM \u00fczemel, hanem bankfi\u00f3k is.\u003C\/p\u003E","address":"1111 Budapest, Bart\u00f3k B\u00e9la \u00fat 34.","email":"","lat":"47.479418","lon":"19.051737"},{"id":"7","type":"0","name":"\u00dajbudai K\u00f6z\u00f6ss\u00e9gi Pont","description":"\u003Cp\u003ETelefon: +36 1 428-8815 Fax: +36 1 279-1145 Nyitvatart\u00e1s: (H-P) 8:00-15:00;\u00a0\u003C\/p\u003E\r\n\u003Cp\u003E\u003Ca href=\u0022ujbudai-kozossegi-pont\u0022 target=\u0022_blank\u0022\u003EN\u00e9zz k\u00f6r\u00fcl a K\u00f6z\u00f6ss\u00e9gi Pontban!\u003C\/a\u003E\u003C\/p\u003E","address":"1111 Budapest, Bart\u00f3k B\u00e9la \u00fat 34.","email":"fiok15@magnetbank.hu","lat":"47.479418","lon":"19.051737"}]}